[
  {
    "title": "Frieren",
    "description": "В процессе",
    "image": "https://arnimaz.github.io/images/Frieren.png"
  },
  {
    "title": "Jinx",
    "description": "https://wplace.live/?lat=53.491862832543816&lng=28.015400390624986&zoom=12.812576708002586",
    "image": "https://arnimaz.github.io/images/Jinx.png"
  },
  {
    "title": "Loona",
    "description": "https://wplace.live/?lat=53.52813613835609&lng=28.01733398437498&zoom=12.812576708002586",
    "image": "https://arnimaz.github.io/images/Loona.png"
  },
  {
    "title": "Neko Arc",
    "description": "https://wplace.live/?lat=53.435980998747&lng=27.955634765624993&zoom=12.71916929668066",
    "image": "https://arnimaz.github.io/images/Neko_Arc.png"
  },
  {
    "title": "Ula and Zmora",
    "description": "https://wplace.live/?lat=53.38715508229152&lng=27.995537109375&zoom=12.655548087849914",
    "image": "https://arnimaz.github.io/images/Ula_and_Zmora.png"
  },
  {
    "title": "Albedo",
    "description": "https://wplace.live/?lat=53.56677953305217&lng=27.86879882812499&zoom=12.462407933527613",
    "image": "https://arnimaz.github.io/images/Albedo.jpg"
  }
]